,City,Cloudiness,Date,Humidity,Lat,Lng,Max Temp,Windspeed
0,turukhansk,100.0,1605426368,89,65.82,87.98,-12.91,9.71
1,hermanus,88.0,1605426212,62,-34.42,19.23,66,4.61
2,barrow,90.0,1605426368,73,71.29,-156.79,21.2,14.99
4,georgetown,20.0,1605426369,74,5.41,100.34,87.8,9.17
5,chizhou,0.0,1605426369,46,30.66,117.48,71.04,4.05
7,yulara,40.0,1605426369,20,-25.24,130.99,95,31.09
8,port elizabeth,90.0,1605426147,82,-33.92,25.57,64.4,14.99
9,iqaluit,75.0,1605426370,67,63.75,-68.51,23,6.93
10,dalvik,90.0,1605426370,94,65.97,-18.53,32,4.7
12,pisco,75.0,1605426370,88,-13.7,-76.22,62.6,8.05
13,kavieng,49.0,1605426371,75,-2.57,150.8,83.91,10.92
14,troitsko-pechorsk,94.0,1605426371,92,62.71,56.2,13.77,5.39
15,mar del plata,0.0,1605426329,87,-38,-57.56,57,8.05
17,mataura,96.0,1605426371,70,-46.19,168.86,60.22,3.02
18,vaini,20.0,1605426372,94,-21.2,-175.2,75.2,3.36
19,east london,75.0,1605426372,72,-33.02,27.91,68,9.17
20,ushuaia,75.0,1605426372,75,-54.8,-68.3,42.8,4.7
21,dongning,64.0,1605426372,54,44.06,131.12,49.6,9.8
22,nikolskoye,75.0,1605426373,86,59.7,30.79,30.99,6.71
23,port moresby,40.0,1605426373,79,-9.44,147.18,84.2,23.04
24,peleduy,100.0,1605426373,94,59.63,112.74,10.38,5.08
25,kapaa,40.0,1605426373,78,22.08,-159.32,77,10.29
26,coquimbo,2.0,1605426294,87,-29.95,-71.34,53.6,3.36
27,yellowknife,90.0,1605426374,84,62.46,-114.35,3.2,6.93
28,hithadhoo,100.0,1605426374,77,-0.6,73.08,83.39,18.54
29,cidreira,100.0,1605426374,90,-30.18,-50.21,68.94,7.83
30,okhotsk,100.0,1605426374,88,59.38,143.3,11.53,19.71
31,belaya gora,75.0,1605426375,86,68.53,146.42,-24.72,2.37
32,phalaborwa,0.0,1605426375,50,-23.94,31.14,78.8,6.93
33,kaitangata,100.0,1605426375,72,-46.28,169.85,57.99,7.09
34,rikitea,0.0,1605426375,83,-23.12,-134.97,75.49,13.35
35,saint-philippe,90.0,1605426376,57,-21.36,55.77,78.8,20.8
36,tel aviv-yafo,40.0,1605426376,82,32.08,34.78,64.4,6.93
37,san ramon,1.0,1605426130,93,37.78,-121.98,48.2,3.36
38,albany,20.0,1605426303,92,42.6,-73.97,28,3.36
39,hobart,75.0,1605426237,72,-42.88,147.33,62.01,4.7
40,bredasdorp,99.0,1605426377,52,-34.53,20.04,66.2,4.7
41,los llanos de aridane,20.0,1605426377,69,28.66,-17.92,75.2,3.36
42,cabo san lucas,46.0,1605426115,82,22.89,-109.91,68,5.53
43,atuona,4.0,1605426377,77,-9.8,-139.03,77.14,16.6
44,carnarvon,0.0,1605426378,47,-24.87,113.63,78.8,20.8
45,pevek,100.0,1605426378,87,69.7,170.31,2.07,6.11
46,ostrovnoy,78.0,1605426378,94,68.05,39.51,32.79,24
47,faanui,0.0,1605426378,76,-16.48,-151.75,80.11,7.43
48,chuy,100.0,1605426378,97,-33.7,-53.46,65.08,2.75
50,lebu,0.0,1605426379,82,-37.62,-73.65,48.69,17.67
51,deputatskiy,83.0,1605426379,91,69.3,139.9,-10.64,3.36
53,ambilobe,88.0,1605426380,52,-13.2,49.05,88.43,5.44
54,paamiut,0.0,1605426380,77,61.99,-49.67,22.57,25.84
55,nioro,0.0,1605426380,27,13.35,-15.75,70.7,5.14
56,morehead,90.0,1605426380,45,37.27,-87.18,69.8,17.22
57,san quintin,0.0,1605426381,74,30.48,-115.95,60.51,3.2
58,vila velha,40.0,1605426381,100,-20.33,-40.29,75.2,1.12
59,aquiraz,40.0,1605426381,78,-3.9,-38.39,80.6,14.99
61,cap malheureux,33.0,1605426382,57,-19.98,57.61,81,11.99
62,saint-denis,0.0,1605426382,76,48.92,2.33,57.2,16.11
63,katsuura,0.0,1605426254,59,35.13,140.3,64,1.99
64,uaua,89.0,1605426272,79,-9.84,-39.48,71.67,11.18
65,victoria,100.0,1605426251,69,22.29,114.16,75,8.99
66,punta arenas,75.0,1605426383,87,-53.15,-70.92,44.6,34.45
67,san patricio,40.0,1605426383,94,28.02,-97.52,77,12.75
68,newnan,1.0,1605426278,87,33.38,-84.8,55.4,5.82
69,ivdel,35.0,1605426384,81,60.69,60.42,15.85,2.35
70,moussoro,0.0,1605426384,18,13.64,16.49,83.48,22.15
71,kavaratti,100.0,1605426384,75,10.57,72.64,83.97,9.75
72,moindou,75.0,1605426385,65,-21.69,165.68,80.6,5.82
73,arlit,0.0,1605426385,20,18.74,7.39,74.98,7.38
74,castro,0.0,1605426385,91,-24.79,-50.01,61.72,2.17
76,hilo,75.0,1605426224,73,19.73,-155.09,73.4,5.82
77,hendek,75.0,1605426386,100,40.8,30.75,51.8,5.41
78,tocopilla,25.0,1605426113,65,-22.09,-70.2,58.93,3.74
79,calera,1.0,1605426386,76,33.1,-86.75,60.01,3.36
80,avera,90.0,1605426386,95,33.19,-82.53,55.4,5.12
81,gazanjyk,0.0,1605426387,37,39.24,55.52,55.13,12.41
82,butaritari,91.0,1605426387,70,3.07,172.79,81.7,8.55
83,busselton,51.0,1605426387,67,-33.65,115.33,62.01,3
84,krasnik,90.0,1605426388,100,50.92,22.23,46.4,8.05
86,aklavik,71.0,1605426388,84,68.22,-135.01,6.8,6.93
87,mehamn,6.0,1605426388,78,71.04,27.85,41.31,30.11
88,bambous virieux,75.0,1605426389,73,-20.34,57.76,81,10.29
89,nanortalik,0.0,1605426389,84,60.14,-45.24,21.54,6.8
90,cape town,20.0,1605426281,55,-33.93,18.42,66,17.22
91,belyy yar,0.0,1605426389,63,53.6,91.39,28.4,4.47
92,half moon bay,1.0,1605426389,93,37.46,-122.43,50,4.56
93,kremenki,51.0,1605426390,92,54.88,37.13,34,5.86
94,byron bay,75.0,1605426390,83,-28.65,153.62,77,9.17
96,ambulu,81.0,1605426390,79,-8.35,113.61,83.25,8.37
97,skjervoy,97.0,1605426391,69,70.03,20.97,43.77,15.9
99,laem sing,20.0,1605426391,41,12.48,102.07,93.2,5.82
100,qaanaaq,100.0,1605426391,83,77.48,-69.36,16.74,14
101,gat,1.0,1605426303,100,31.61,34.76,64,1.99
102,puerto ayora,98.0,1605426392,87,-0.74,-90.35,68,3
103,samarai,84.0,1605426392,81,-10.62,150.67,81.46,12.33
104,chokurdakh,88.0,1605426392,87,70.63,147.92,-25.91,3.53
105,petropavlovsk-kamchatskiy,17.0,1605426393,74,53.05,158.65,37.4,8.95
106,norman wells,75.0,1605426393,83,65.28,-126.83,-7.6,3.36
107,arraial do cabo,100.0,1605426393,93,-22.97,-42.03,72.59,2.3
108,klaksvik,100.0,1605426393,87,62.23,-6.59,48.2,13.87
109,aleksandrov gay,11.0,1605426394,80,50.15,48.57,25.54,9.24
110,airai,35.0,1605426394,56,-8.93,125.41,75.63,4.25
111,sandwick,63.0,1605426394,87,60,-1.25,51.8,23.04
112,waipawa,9.0,1605426394,82,-41.41,175.52,62.6,18.34
113,sao miguel do araguaia,98.0,1605426395,86,-13.28,-50.16,73.33,5.08
114,avarua,44.0,1605426395,88,-21.21,-159.78,75.2,8.05
115,aljezur,24.0,1605426395,81,37.32,-8.8,66,3
117,jumla,24.0,1605426396,25,29.27,82.18,64.13,8.23
118,leningradskiy,11.0,1605426396,83,69.38,178.42,6.13,7.23
119,kahului,40.0,1605426109,65,20.89,-156.47,77,9.17
120,laguna,1.0,1605426396,87,38.42,-121.42,44.01,3.4
121,saskylakh,100.0,1605426397,93,71.92,114.08,4.75,9.78
122,new norfolk,80.0,1605426397,70,-42.78,147.06,62.01,1.63
123,kodiak,15.0,1605426397,87,57.79,-152.41,33.03,11.03
124,port alfred,76.0,1605426397,80,-33.59,26.89,67.98,12.01
125,formosa,90.0,1605426398,100,-26.18,-58.18,66.2,21.92
126,jamestown,90.0,1605426398,45,42.1,-79.24,44.01,11.41
128,paysandu,51.0,1605426105,87,-32.32,-58.08,66.99,6.29
129,sorland,100.0,1605426399,89,67.67,12.69,46.96,21.56
131,pudozh,97.0,1605426399,89,61.81,36.53,35.11,5.79
132,antofagasta,75.0,1605426363,72,-23.65,-70.4,60.8,5.82
133,dogondoutchi,31.0,1605426399,19,13.64,4.03,82.99,19.35
134,hami,66.0,1605426400,41,42.8,93.45,51.75,9.55
135,inongo,19.0,1605426400,75,-1.95,18.27,77.56,3.02
136,lagoa,27.0,1605426400,72,39.05,-27.98,61.54,6.93
137,isangel,3.0,1605426401,81,-19.55,169.27,76.87,8.84
138,san pedro de macoris,40.0,1605426401,100,18.46,-69.3,73.99,6.53
139,vao,0.0,1605426401,79,-22.67,167.48,75.69,9.06
140,constitucion,0.0,1605426349,70,-35.33,-72.42,50.38,5.53
141,talnakh,75.0,1605426401,84,69.49,88.4,-2.2,22.37
142,sitka,1.0,1605426402,86,57.05,-135.33,33.8,3.36
144,heide,15.0,1605426402,92,54.2,9.1,51.01,1.99
145,flinders,0.0,1605426402,81,-34.58,150.86,73,11.52
146,saldanha,39.0,1605426403,55,-33.01,17.94,64.4,13.87
147,chekhov,100.0,1605426403,94,55.14,37.47,34,5.37
148,nome,40.0,1605426403,58,64.5,-165.41,24.8,6.13
149,dikson,100.0,1605426403,97,73.51,80.55,21.96,4.83
150,thompson,90.0,1605426304,85,55.74,-97.86,10.4,11.41
151,praia,20.0,1605426314,69,14.92,-23.51,75.2,11.41
152,lasa,0.0,1605426404,92,46.62,10.7,30.2,2.35
153,shemonaikha,100.0,1605426404,81,50.63,81.91,33.82,14.88
154,gladstone,0.0,1605426405,65,-23.85,151.25,82.4,13.87
155,arnhem,58.0,1605426181,82,51.97,5.9,57,13.87
156,martinsicuro,7.0,1605426405,87,42.88,13.91,54,5.82
157,kidal,0.0,1605426405,22,18.44,1.41,74.77,21.03
158,ancud,0.0,1605426406,93,-41.87,-73.82,42.01,2.24
159,iskateley,99.0,1605426406,98,67.68,53.15,31.33,11.54
160,kenai,1.0,1605426406,85,60.55,-151.26,17.6,6.51
161,mahebourg,75.0,1605426406,73,-20.41,57.7,75.2,10.29
162,yining,0.0,1605426407,49,29.04,114.56,72.54,0.87
163,mackay,0.0,1605426407,69,-21.15,149.2,82.4,12.75
164,nyimba,65.0,1605426407,22,-14.56,30.81,94.14,3.78
165,teguldet,94.0,1605426407,95,57.31,88.17,23.9,2.48
166,tucurui,93.0,1605426226,93,-3.77,-49.67,74.66,4.38
168,boksitogorsk,95.0,1605426408,93,59.47,33.85,34,6.58
169,labuhan,40.0,1605426408,62,-6.88,112.21,87.82,10.6
170,ayan,81.0,1605426409,85,56.45,138.17,23.25,16.87
171,tweed,100.0,1605426305,78,44.48,-77.32,39,4
172,khatanga,100.0,1605426409,93,71.97,102.5,0.91,15.28
173,francisco sa,100.0,1605426409,90,-16.48,-43.49,69.3,2.57
174,geraldton,0.0,1605426410,40,-28.77,114.6,69.8,10.29
176,malaya purga,0.0,1605426410,82,56.56,53,14,3.36
177,arman,100.0,1605426410,90,59.7,150.17,13.91,7.9
178,waddan,0.0,1605426410,66,29.16,16.14,64.22,6.96
179,ponta do sol,75.0,1605426411,94,32.67,-17.1,70,12.75
180,fortuna,90.0,1605426411,58,40.6,-124.16,55.99,20.8
181,ngaoundere,77.0,1605426411,31,7.32,13.58,79.45,6.38
182,poggiomarino,31.0,1605426411,39,40.8,14.54,63,2.44
183,westport,1.0,1605426316,92,41.14,-73.36,32,3.53
185,batagay-alyta,59.0,1605426412,85,67.8,130.41,-4.11,1.28
186,bud,90.0,1605426412,67,39.45,-86.18,57.99,13.87
187,lompoc,1.0,1605426413,87,34.64,-120.46,46.4,8.08
188,miranda de ebro,40.0,1605426187,87,42.69,-2.95,55.99,5.82
190,port hardy,90.0,1605426413,93,50.7,-127.42,42.8,13.87
191,tuatapere,100.0,1605426414,83,-46.13,167.68,59.59,4.16
192,bubaque,0.0,1605426414,61,11.28,-15.83,83.25,8.1
193,kedrovyy,0.0,1605426414,78,56.17,91.82,17.6,4.47
194,hilton head island,1.0,1605426164,100,32.22,-80.75,68,8.99
195,maceio,40.0,1605426415,100,-9.67,-35.74,73.4,3.36
196,derzhavinsk,100.0,1605426415,95,51.1,66.32,15.48,12.33
197,san carlos de bariloche,0.0,1605426415,86,-41.15,-71.31,32,5.82
198,shelburne,100.0,1605426155,77,44.08,-80.2,39.99,16.69
199,bengkulu,59.0,1605426415,81,-3.8,102.27,83.97,7.18
200,coromandel,99.0,1605426416,86,-18.47,-47.2,64.22,2.24
201,hofn,100.0,1605426416,79,64.25,-15.21,36.99,16.58
202,bloomingdale,90.0,1605426416,94,27.89,-82.24,73.4,3.36
203,kurilsk,62.0,1605426416,67,45.23,147.88,44.67,14.74
204,oni,66.0,1605426417,40,42.58,43.44,51.96,3.02
205,provideniya,0.0,1605426417,86,64.38,-173.3,17.53,6.6
207,metro,3.0,1605426417,49,-5.11,105.31,90.82,11.41
208,menongue,31.0,1605426418,57,-14.66,17.69,77.25,3.74
209,bihac,72.0,1605426418,75,44.82,15.87,52.29,2.37
210,naryan-mar,99.0,1605426418,98,67.67,53.09,31.26,11.56
211,zhigansk,87.0,1605426418,93,66.77,123.37,-1.05,4.61
212,dawei,100.0,1605426419,51,14.08,98.2,88.11,3.85
213,ilulissat,53.0,1605426419,54,69.22,-51.1,1.4,24.16
215,ust-nera,3.0,1605426419,78,64.57,143.2,-18.06,2.71
216,takoradi,4.0,1605426420,79,4.88,-1.76,81.23,2.8
217,zabol,1.0,1605426420,63,32.25,67.25,42.85,18.16
218,bethel,1.0,1605426420,92,41.37,-73.41,33.01,2.01
219,lander,1.0,1605426420,57,42.83,-108.73,19.4,4.7
220,freeport,1.0,1605426412,80,40.66,-73.58,41,5.37
222,namibe,21.0,1605426421,67,-15.2,12.15,73.04,5.86
223,lazaro cardenas,19.0,1605426421,88,17.96,-102.2,74.8,4.59
224,khani,0.0,1605426422,54,41.96,42.96,55.4,9.17
225,moose factory,1.0,1605426422,92,51.26,-80.61,28.4,8.05
227,kargasok,88.0,1605426422,96,59.06,80.86,17.6,5.12
228,pampierstad,0.0,1605426422,20,-27.78,24.69,90.16,17.16
229,tura,0.0,1605426423,61,25.52,90.22,81.61,3
230,acarau,78.0,1605426423,81,-2.89,-40.12,78.96,13.76
231,cherskiy,100.0,1605426423,87,68.75,161.3,-2.2,6.15
232,lata,91.0,1605426423,93,40.16,-8.33,63,5.19
233,sandviken,90.0,1605426424,98,60.62,16.77,39.99,3
235,tiznit,100.0,1605426424,31,29.58,-9.5,71.13,8.03
236,port lincoln,30.0,1605426424,59,-34.73,135.87,66.52,24.52
237,santa lucia,0.0,1605426425,77,27.91,-15.54,71.01,5.82
238,waingapu,93.0,1605426425,51,-9.66,120.26,89.49,11.39
239,oktyabrskiy,17.0,1605426425,92,54.48,53.47,14.18,6.73
240,tuktoyaktuk,100.0,1605426425,94,69.45,-133.04,10.36,19.51
241,burnie,13.0,1605426426,58,-41.07,145.92,66.99,5.01
242,ulaanbaatar,40.0,1605426209,32,47.91,106.88,39.2,8.95
243,tasiilaq,100.0,1605426426,97,65.61,-37.64,23.02,9.64
244,palmer,1.0,1605426391,100,42.16,-72.33,27,0.85
245,pontes e lacerda,100.0,1605426427,72,-15.23,-59.34,74.75,2.26
246,codrington,27.0,1605426427,75,-38.27,141.97,65.62,9.64
248,taoudenni,54.0,1605426427,20,22.68,-3.98,74.25,16.98
249,villazon,0.0,1605426427,51,-22.09,-65.59,52.11,0.87
250,nargana,98.0,1605426428,82,9.44,-78.59,79.18,18.25
251,liuzhou,76.0,1605426428,61,24.31,109.39,69.24,7.49
252,manggar,78.0,1605426428,67,-2.88,108.27,85.3,6.69
253,nakhon phanom,75.0,1605426428,73,17.33,104.42,84,5.82
254,bo phloi,97.0,1605426429,64,14.32,99.52,84.49,9.53
255,kudahuvadhoo,100.0,1605426429,76,2.67,72.89,82.76,12.77
256,nan,0.0,1605426429,38,18.83,100.67,87.8,6.93
257,bentiu,4.0,1605426429,20,9.23,29.83,88.95,7.29
258,axim,3.0,1605426430,76,4.87,-2.24,81.81,4.07
259,pangnirtung,100.0,1605426430,91,66.15,-65.71,12.65,2.44
260,cairns,1.0,1605426168,62,-16.92,145.77,86,6.93
261,abu samrah,90.0,1605426430,51,35.3,37.18,61.7,1.92
263,asau,22.0,1605426431,78,46.43,26.4,45,3.78
264,bluff,100.0,1605426431,84,-46.6,168.33,59.38,10.13
265,salalah,0.0,1605426431,58,17.02,54.09,84.2,10.29
266,mayumba,67.0,1605426431,83,-3.43,10.66,80.65,6.4
267,zhezkazgan,100.0,1605426432,89,47.8,67.71,21.04,12.97
268,westminster,1.0,1605426325,24,39.84,-105.04,34,34.45
269,severo-kurilsk,73.0,1605426432,83,50.68,156.12,35.49,16.93
270,rio gallegos,40.0,1605426432,50,-51.62,-69.22,50,18.34
272,kinablangan,60.0,1605426433,75,7.69,126.55,83.26,3.47
273,tiksi,3.0,1605426433,90,71.69,128.87,-6.74,8.46
274,sibolga,100.0,1605426433,70,1.74,98.78,85.44,4.41
276,vaitape,0.0,1605426434,74,-16.52,-151.75,80.94,7.52
277,xuddur,71.0,1605426434,63,4.12,43.89,79.39,11.74
278,tromso,75.0,1605426401,65,69.65,18.96,44.6,35.57
282,college,75.0,1605426435,78,64.86,-147.8,10.99,2.13
284,luderitz,0.0,1605426435,48,-26.65,15.16,69.48,20.76
285,kyzyl-suu,100.0,1605426436,83,42.34,78.01,36,2.1
286,yarada,20.0,1605426436,55,17.65,83.27,86,10.29
287,vredendal,27.0,1605426436,48,-31.67,18.5,69.44,10.27
288,halifax,46.0,1605426436,82,44.65,-63.57,39.2,10.29
289,vestmanna,100.0,1605426437,87,62.16,-7.17,48.2,13.87
291,ribeira grande,40.0,1605426437,82,38.52,-28.7,59,4.7
292,hamilton,40.0,1605426304,41,39.18,-84.53,60.8,16.11
293,humberto de campos,98.0,1605426437,83,-2.6,-43.46,78.48,7.85
294,damaturu,10.0,1605426438,24,11.75,11.96,83.43,17.94
295,viransehir,54.0,1605426438,32,37.24,39.76,61.56,4.56
297,onega,86.0,1605426438,89,63.91,38.14,36.23,9.84
299,tessalit,0.0,1605426439,22,20.2,1.01,73.85,18.54
300,sukhaya buyvola,75.0,1605426439,70,45.15,43,39,17.9
301,krasnoselkup,93.0,1605426439,91,65.7,82.47,-2.96,12.5
302,banjar,75.0,1605426440,70,-8.19,114.97,86,10.29
303,makakilo city,1.0,1605426290,73,21.35,-158.09,78.8,3.36
305,tanggu,83.0,1605426440,48,39.02,117.65,62.6,2.06
306,souillac,75.0,1605426440,73,-20.52,57.52,75.2,10.29
307,port macquarie,0.0,1605426441,51,-31.43,152.92,80.6,16.11
308,sangar,100.0,1605426441,94,63.92,127.47,4.3,10.76
309,tabuk,30.0,1605426441,83,17.42,121.44,79.75,10.33
310,yanagawa,75.0,1605426441,64,33.17,130.4,73,1.77
311,baft,0.0,1605426441,45,29.23,56.61,48.92,5.73
312,sao filipe,91.0,1605426442,60,14.9,-24.5,80.28,8.16
313,moissala,100.0,1605426442,28,8.34,17.77,84.97,3.58
314,zhangye,0.0,1605426442,23,38.93,100.45,63.86,8.9
315,dwarka,82.0,1605426442,41,22.24,68.97,83.41,9.91
316,spirit river,31.0,1605426443,84,55.78,-118.84,1.4,1.12
317,boyolangu,100.0,1605426443,81,-8.12,111.89,81.14,9.51
318,komsomolskiy,99.0,1605426443,46,40.43,71.72,42.8,4.7
320,beyneu,0.0,1605426444,79,45.32,55.2,30.38,9.64
321,zvishavane,16.0,1605426444,18,-20.33,30.07,84.49,6.55
322,austin,1.0,1605426294,83,30.27,-97.74,71.01,7.72
323,peace river,90.0,1605426305,92,56.25,-117.29,12.99,10.29
324,washougal,90.0,1605426444,93,45.58,-122.35,50,13.87
325,santiago del estero,100.0,1605426270,88,-27.8,-64.26,66,1.99
326,tsaratanana,1.0,1605426445,40,-16.78,47.65,87.73,9.15
327,balezino,12.0,1605426445,87,57.98,53.01,16.84,3
328,isoka,100.0,1605426445,62,-10.16,32.63,78.58,3.49
329,aspindza,95.0,1605426446,48,41.57,43.25,48.54,1.25
330,plettenberg bay,96.0,1605426446,73,-34.05,23.37,62.98,2.42
331,dingle,0.0,1605426446,78,11,122.67,83.26,10.11
332,shingu,20.0,1605426446,60,33.73,135.98,69.8,11.41
333,nemuro,0.0,1605426194,60,43.32,145.57,42.8,6.93
334,sambava,100.0,1605426447,86,-14.27,50.17,75.69,14.92
336,pacific grove,1.0,1605426252,87,36.62,-121.92,51.01,6.89
337,nata,91.0,1605426447,92,8.33,-80.52,71.01,7.9
338,sao paulo de olivenca,98.0,1605426448,97,-3.38,-68.87,73.18,0.72
339,sao joao da barra,100.0,1605426448,91,-21.64,-41.05,72,6.08
340,esperance,0.0,1605426448,52,-33.87,121.9,66.2,16.11
341,chapais,75.0,1605426448,85,49.78,-74.85,21.2,8.05
342,saint-francois,53.0,1605426449,100,46.42,3.91,41,9.24
343,tuy hoa,50.0,1605426158,76,13.08,109.3,82.13,8.16
344,te anau,100.0,1605426449,82,-45.42,167.72,56.93,2.19
345,talcher,0.0,1605426449,42,20.95,85.22,89.92,1.41
346,hirara,40.0,1605426449,78,24.8,125.28,80.6,11.41
347,upernavik,100.0,1605426450,81,72.79,-56.15,17.4,16.55
348,alice springs,40.0,1605426308,28,-23.7,133.88,93.2,24.16
349,alta floresta,89.0,1605426450,90,-9.88,-56.09,71.73,1.07
350,fort nelson,90.0,1605426304,85,58.81,-122.7,14,2.3
351,anadyr,0.0,1605426451,66,64.75,177.48,14,11.18
352,poya,3.0,1605426451,77,-21.35,165.15,77.68,4.09
353,hasaki,20.0,1605426451,72,35.73,140.83,63,6.93
354,iracoubo,98.0,1605426451,88,5.48,-53.2,77.65,8.05
355,olafsvik,100.0,1605426451,82,64.89,-23.71,36.28,11.79
356,torbay,90.0,1605426452,98,47.67,-52.73,34,19.46
357,shimoda,20.0,1605426452,55,34.67,138.95,66.2,13.87
358,nouadhibou,0.0,1605426452,60,20.93,-17.03,69.8,9.17
359,beloha,0.0,1605426452,37,-25.17,45.05,83.23,15.84
360,maracacume,97.0,1605426453,97,-2.04,-45.96,74.05,2.51
362,umm kaddadah,0.0,1605426453,23,13.6,26.69,76.05,21.61
363,urdoma,98.0,1605426453,98,61.75,48.54,28.42,4.7
364,verkhoyansk,71.0,1605426454,82,67.54,133.38,-15.7,0.94
365,gogrial,46.0,1605426454,18,8.53,28.1,87.03,8.3
366,rocha,93.0,1605426454,95,-34.48,-54.33,62.87,5.55
367,caravelas,65.0,1605426454,91,-17.71,-39.25,73.33,5.82
368,ivanava,84.0,1605426454,89,52.15,25.54,43.66,1.48
369,buluang,25.0,1605426455,68,13.31,123.34,86.11,5.1
370,las piedras,90.0,1605426455,93,-34.73,-56.22,64.4,4.59
371,plovdiv,0.0,1605426455,81,42.15,24.75,44.6,4.7
373,kolyvan,75.0,1605426456,79,55.31,82.74,27.99,6.71
374,umm lajj,0.0,1605426456,49,25.02,37.27,81.19,7.99
375,dunedin,100.0,1605426456,72,-45.87,170.5,59,14.52
376,misratah,8.0,1605426456,63,32.38,15.09,66.27,10.6
378,gondanglegi,100.0,1605426457,70,-7.75,112.01,84.4,13
380,pangai,8.0,1605426457,84,-19.8,-174.35,77.7,12.39
381,lewisville,1.0,1605426410,36,33.05,-96.99,62.6,14.99
383,karratha,0.0,1605426403,28,-20.74,116.85,87.71,19.01
384,wuan,0.0,1605426458,36,31.68,112,71.24,8.43
385,marzuq,5.0,1605426458,21,14.4,46.47,77.16,7.38
386,the valley,20.0,1605426458,83,18.22,-63.06,80.01,9.17
387,berlevag,43.0,1605426459,83,70.86,29.09,41.79,36.55
388,aykhal,75.0,1605426459,84,66,111.5,-2.2,4.47
389,longyearbyen,40.0,1605426459,89,78.22,15.64,42.8,17.22
391,karasburg,0.0,1605426459,27,-28.02,18.75,68.86,5.23
392,evensk,100.0,1605426460,97,61.95,159.23,22.3,19.22
393,xinqing,40.0,1605426460,87,48.23,129.5,25.74,6.85
395,roald,75.0,1605426460,66,62.58,6.13,51.8,17.22
396,mayo,90.0,1605426461,71,38.89,-76.51,54,9.17
398,belmonte,20.0,1605426461,88,-15.86,-38.88,75.2,3.36
399,saint george,1.0,1605426379,33,37.1,-113.58,43,3.36
400,richards bay,94.0,1605426461,68,-28.78,32.04,77.9,7.38
401,kitzbuhel,0.0,1605426462,93,47.45,12.39,37.4,2.24
402,rio grande,87.0,1605426462,93,-32.03,-52.1,71.01,3.36
403,sucua,100.0,1605426462,77,-2.47,-78.17,67.98,2.89
404,lufilufi,75.0,1605426462,88,-13.87,-171.6,80.6,6.93
405,okha,81.0,1605426463,90,53.57,142.95,29.07,17.58
406,huazhou,100.0,1605426463,76,21.63,110.58,75.54,9.51
407,zyryanka,100.0,1605426463,89,65.75,150.85,-13.04,12.97
408,quang ngai,100.0,1605426463,81,15.12,108.8,81.36,11.59
409,sovetskiy,13.0,1605426464,86,61.36,63.58,13.8,2.95
410,saint-augustin,99.0,1605426464,85,51.23,-58.65,29.5,5.17
411,muravlenko,98.0,1605426464,90,63.79,74.52,-3.06,7.36
412,stephenville crossing,90.0,1605426464,93,48.5,-58.43,32,2.24
413,bardiyah,27.0,1605426465,63,31.76,25.09,67.03,12.33
414,itarema,60.0,1605426465,80,-2.92,-39.92,79.03,13.91
415,bogandinskiy,75.0,1605426465,84,56.89,65.89,6.8,11.18
416,olinda,75.0,1605426465,74,-8.01,-34.86,80.6,6.93
417,hobyo,29.0,1605426466,63,5.35,48.53,84.15,16.6
418,leighton buzzard,100.0,1605426466,90,51.92,-0.66,55,3
419,nguruka,100.0,1605426466,93,-5.11,31.04,67.39,4.59
420,narsaq,0.0,1605426466,66,60.92,-46.05,10.4,4.7
421,abnub,0.0,1605426466,63,27.27,31.15,64.4,11.41
422,goderich,100.0,1605426467,75,43.75,-81.72,41,16.11
423,anderson,75.0,1605426467,71,34.53,-82.65,57.2,4.7
424,henties bay,56.0,1605426467,86,-22.12,14.28,61,8.01
425,quatre cocos,75.0,1605426467,73,-20.21,57.76,81,10.29
426,aguadilla,75.0,1605426468,89,18.43,-67.15,75,1.01
427,muros,100.0,1605426468,89,42.78,-9.06,63,11.99
428,cockburn town,97.0,1605426468,77,21.46,-71.14,79.99,17.49
429,castro-urdiales,40.0,1605426468,56,43.38,-3.22,70,9.17
430,bontang,17.0,1605426469,69,0.13,117.5,85.44,8.48
431,ahipara,23.0,1605426469,76,-35.17,173.17,58.68,1.16
432,canico,75.0,1605426469,94,32.63,-16.85,70,12.75
433,bogoslovka,74.0,1605426469,41,53.21,44.8,30.99,9.42
434,bundaberg,11.0,1605426470,61,-24.85,152.35,82.4,17.22
435,bahia blanca,0.0,1605426470,60,-38.72,-62.27,52.56,0.65
436,baillif,5.0,1605426470,100,16.02,-61.75,71.6,1.12
437,grindavik,75.0,1605426470,86,63.84,-22.43,35.6,3.36
438,dzaoudzi,0.0,1605426470,62,-12.79,45.27,86,6.93
439,ukiah,90.0,1605426243,87,39.15,-123.21,45,1.66
440,la ronge,35.0,1605426471,78,55.1,-105.28,15.8,2.24
441,hualmay,98.0,1605426471,87,-11.1,-77.61,61.32,7.94
442,cutro,0.0,1605426471,100,39.04,16.98,59,3.36
443,kaeo,28.0,1605426472,71,-35.1,173.78,58.75,4.34
444,bulungu,82.0,1605426472,80,-4.55,18.6,77.25,0.51
445,papetoai,20.0,1605426472,78,-17.5,-149.87,78.8,4.7
446,ugoofaaru,100.0,1605426472,72,5.67,73,84.47,8.63
447,sayat,0.0,1605426472,41,38.78,63.88,50,11.41
448,tommot,100.0,1605426473,93,58.96,126.29,12.94,10.02
449,sao joaquim,36.0,1605426473,100,-28.29,-49.93,55.8,3.8
450,dicabisagan,28.0,1605426473,82,17.08,122.42,80.33,8.88
451,soyo,92.0,1605426473,81,-6.13,12.37,79.57,8.43
453,bamiantong,100.0,1605426474,69,44.93,130.53,44.83,11.48
454,atambua,22.0,1605426474,52,-9.11,124.89,86.07,0.87
455,ambalavao,48.0,1605426474,56,-21.83,46.93,72.93,6.15
456,taber,31.0,1605426303,78,49.82,-112.15,21.2,11.41
457,smidovich,100.0,1605426475,91,48.6,133.82,31.42,9.13
458,perm,90.0,1605426475,92,58.02,56.29,8.6,2.24
459,dosso,0.0,1605426475,20,13.05,3.19,83.7,20.13
460,bella vista,1.0,1605426475,43,36.43,-94.23,51.8,17.22
461,samarkand,0.0,1605426476,64,39.65,66.96,39.2,4.7
462,itupiranga,40.0,1605426476,100,-5.13,-49.33,77,3.36
463,risor,100.0,1605426476,98,58.72,9.23,52,15.99
464,mayna,97.0,1605426476,87,54.11,47.62,19.99,6.49
465,chapayeve,75.0,1605426476,92,49.37,35.87,30.2,8.95
466,magadan,100.0,1605426477,93,59.57,150.8,14.41,7.56
467,husavik,90.0,1605426477,97,66.04,-17.34,32,4.7
468,dawlatabad,0.0,1605426477,46,36.41,64.91,49.71,8.77
470,fare,21.0,1605426478,75,-16.7,-151.02,80.38,6.76
471,mount isa,77.0,1605426212,21,-20.73,139.5,100.4,18.34
473,mitsamiouli,93.0,1605426478,72,-11.38,43.28,79.99,5.46
474,cocorit,0.0,1605426479,34,27.58,-109.97,67.82,4.54
475,newcastle,0.0,1605426372,51,-32.93,151.78,80.6,13.87
477,takhtamygda,100.0,1605426479,88,54.1,123.57,15.33,2.06
478,eldorado,0.0,1605426378,79,-23.79,-54.28,70.86,6.15
479,saint-pierre,90.0,1605426480,57,-21.34,55.48,78.8,20.8
480,aswan,0.0,1605426478,43,24.09,32.91,76.98,15.17
481,sabang,99.0,1605426480,80,5.89,95.32,81.14,11.23
482,wanning,85.0,1605426480,88,18.8,110.4,77.97,16.55
483,ixtapa,2.0,1605426481,89,20.7,-105.2,73,1.01
484,auki,100.0,1605426481,79,-8.77,160.7,81.77,5.26
486,bandarbeyla,0.0,1605426481,55,9.49,50.81,81.88,18.95
487,meulaboh,95.0,1605426482,77,4.14,96.13,83.53,8.7
488,show low,1.0,1605426482,40,34.25,-110.03,33.8,3.24
490,carauari,91.0,1605426482,96,-4.88,-66.9,73.22,1.12
491,bathsheba,20.0,1605426482,88,13.22,-59.52,78.8,12.75
492,dong hoi,100.0,1605426483,83,17.48,106.6,72.27,19.51
493,veendam,6.0,1605426483,81,53.11,6.88,54,12.75
495,grinnell,90.0,1605426483,80,41.74,-92.72,41,17.22
496,altay,100.0,1605426484,90,47.87,88.12,33.8,3.06
497,llata,99.0,1605426484,71,-9.42,-76.78,47.07,2.84
498,pontianak,99.0,1605426228,71,-0.03,109.33,85.96,4.99
499,krasnooktyabrskiy,100.0,1605426484,78,44.93,38.37,45,1.01
500,mangit,6.0,1605426484,45,40.6,70.96,46.4,2.24
501,dafeng,100.0,1605426485,68,23.45,108.59,70.09,4.41
502,broken hill,2.0,1605426485,9,-31.95,141.43,105.8,24.16
503,olavarria,0.0,1605426485,71,-36.89,-60.32,45.9,7.23
504,toktogul,40.0,1605426485,62,41.87,72.94,39.6,1.86
505,villa carlos paz,0.0,1605426486,76,-31.42,-64.5,59,1.01
506,mount gambier,11.0,1605426486,34,-37.83,140.77,82.4,16.11
507,shumskiy,29.0,1605426486,86,54.83,99.13,25.59,2.33
508,camacha,75.0,1605426486,94,33.08,-16.33,69.8,14.99
509,vestmannaeyjar,100.0,1605426486,78,63.44,-20.27,39.31,7.96
510,purpe,100.0,1605426487,84,64.48,76.69,-5.01,10.45
511,knysna,90.0,1605426487,100,-34.04,23.05,57.2,6.93
513,biak,100.0,1605426487,73,-0.91,122.88,83.75,4.18
514,tymovskoye,100.0,1605426488,98,50.85,142.66,29.57,2.53
515,udarnyy,98.0,1605426488,95,54.34,42.86,30.18,8.97
516,pierre,1.0,1605426488,69,44.37,-100.35,34,23.04
517,makat,0.0,1605426488,80,47.65,53.35,27.88,9.51
518,sterling,75.0,1605426370,75,39.01,-77.43,48,6.67
519,kampot,0.0,1605426489,52,10.62,104.18,87.8,9.17
520,visby,100.0,1605426489,93,57.64,18.3,48,8.05
521,yaan,42.0,1605426489,69,7.38,8.57,81.79,4.9
522,san cristobal,100.0,1605426489,93,7.77,-72.22,66.36,2.42
523,matagami,75.0,1605426490,92,49.75,-77.63,23,13.87
524,san antonio,20.0,1605426303,93,29.42,-98.49,69.01,3.36
525,bodrum,0.0,1605426490,45,37.04,27.43,62.6,3.36
526,saveh,100.0,1605426227,47,35.02,50.36,52.56,8.05
527,guerrero negro,0.0,1605426490,89,27.98,-114.06,60.6,4.07
528,hay river,99.0,1605426491,78,60.82,-115.8,10.4,3.36
529,itoman,40.0,1605426491,69,26.12,127.67,78.8,18.34
530,teahupoo,20.0,1605426491,78,-17.83,-149.27,78.8,4.7
531,north bend,90.0,1605426491,93,43.41,-124.22,55,20.8
532,innisfail,0.0,1605426492,71,-17.53,146.03,78.98,3.24
533,high rock,11.0,1605426492,82,26.62,-78.28,78.73,11.45
534,ballina,75.0,1605426492,83,-28.87,153.57,77,9.17
535,baghmara,0.0,1605426492,31,23.8,86.21,87.57,8.95
536,barentu,28.0,1605426493,27,15.11,37.59,86.04,4.94
537,kondagaon,0.0,1605426493,42,19.6,81.67,84.69,7.4
538,portland,90.0,1605426247,87,45.52,-122.68,50,12.75
539,key largo,88.0,1605426328,76,25.09,-80.45,80.01,4
540,mama,99.0,1605426494,91,58.31,112.9,14.85,4.09
541,balkhash,40.0,1605426494,73,46.84,74.98,23,15.66
542,mbarara,99.0,1605426494,70,-0.61,30.65,73.81,5.75
543,inirida,15.0,1605426494,96,3.87,-67.92,73.58,2.51
544,andenes,100.0,1605426494,81,69.31,16.12,45,17.22
545,piacabucu,66.0,1605426495,86,-10.41,-36.43,76.69,10.42
546,bhinmal,0.0,1605426495,25,25,72.25,88.97,9.04
547,temnikov,100.0,1605426495,93,54.63,43.21,30.65,10.04
548,fairbanks,75.0,1605426332,78,64.84,-147.72,10.99,2.06
549,bodden town,91.0,1605426496,81,19.28,-81.25,82,13
551,orlik,100.0,1605426496,85,52.52,99.83,20.44,0.38
552,santa cruz de tenerife,20.0,1605426496,63,28.47,-16.25,69.01,1.12
553,glendive,90.0,1605426496,86,47.11,-104.71,30.2,13.87
554,tikapur,0.0,1605426204,30,28.5,81.13,82.98,3.85
555,korla,100.0,1605426497,93,41.76,86.15,48.99,7
556,aasiaat,94.0,1605426497,82,68.71,-52.87,0.97,13.38
557,grand-santi,60.0,1605426497,97,4.25,-54.38,70.79,2.33
558,vanimo,90.0,1605426498,76,-2.67,141.3,83.39,7.65
559,port hedland,0.0,1605426498,30,-20.32,118.57,93.2,21.92
560,danao,75.0,1605426498,59,10.52,124.03,89.6,10.29
561,houma,1.0,1605426210,88,29.6,-90.72,71.6,6.93
562,rosetta,40.0,1605426498,56,31.4,30.42,71.6,12.75
563,tautira,20.0,1605426499,78,-17.73,-149.15,78.8,4.7
564,cabatuan,0.0,1605426499,76,10.88,122.49,83.46,11.79
565,gawler,0.0,1605426409,32,-34.6,138.73,82,21
566,mizan teferi,4.0,1605426499,62,6.98,35.58,76.28,1.48
567,kelvington,100.0,1605426500,79,52.17,-103.53,21.2,9.17
568,atlantic city,1.0,1605426432,80,39.36,-74.42,45,5.59
569,garissa,7.0,1605426500,54,-0.45,39.64,86.56,8.43
570,bull savanna,100.0,1605426500,85,17.89,-77.59,73.83,6.78
571,ardakan,0.0,1605426501,34,32.31,54.02,58.66,5.01
572,chivay,46.0,1605426501,45,-15.64,-71.6,48.24,1.66
573,aksay,75.0,1605426501,92,47.26,39.87,30.2,17.9
574,sola,5.0,1605426501,81,-13.88,167.55,81.48,17.38
575,lavrentiya,0.0,1605426501,88,65.58,-171,19.33,6.38
576,stanislav,0.0,1605426502,80,46.57,32.15,41,4.47
578,vanderhoof,100.0,1605426502,95,54.02,-124.02,27.9,9.53
579,guarapari,40.0,1605426502,100,-20.67,-40.5,75.2,1.12
580,maniitsoq,0.0,1605426503,81,65.42,-52.9,13.98,10.07
581,kieta,84.0,1605426503,77,-6.22,155.63,81.77,5.84
582,salinopolis,100.0,1605426503,82,-0.61,-47.36,80.65,11.45
583,la paz,20.0,1605426365,50,-16.5,-68.15,33.8,4.7
584,ngunguru,100.0,1605426503,70,-35.62,174.5,61.92,6.64
585,madang,77.0,1605426504,78,-5.22,145.8,82.67,6.02
586,ventspils,90.0,1605426504,93,57.39,21.56,41,9.17
587,murmashi,75.0,1605426504,74,68.82,32.81,37.4,6.71
588,ust-maya,100.0,1605426504,95,60.42,134.53,11.25,7.34
589,matay,0.0,1605426505,48,28.42,30.78,71.02,14.25
590,mabaruma,15.0,1605426505,99,8.2,-59.78,73.99,1.88
591,koumac,2.0,1605426505,78,-20.57,164.28,77.59,9.01
592,mapiripan,100.0,1605426505,95,2.89,-72.13,73.69,2.59
593,mana,73.0,1605426506,88,5.66,-53.78,76.95,7.67
594,chenzhou,67.0,1605426506,51,25.8,113.03,76.21,4.56
595,kalmunai,84.0,1605426506,69,7.42,81.82,85.82,10.04
596,bambanglipuro,100.0,1605426506,79,-7.95,110.28,82.67,14.92
597,qafqafa,75.0,1605426507,67,32.35,35.94,62.6,4.7
